"polygon_id","polygon_name","polygon_level","polygon_version","country","date_time","n_baseline","n_crisis","n_difference","density_baseline","density_crisis","percent_change","clipped_z_score","lat","lon","ds"
"PAK.5.7_1","Mardan","GADM2","3.6","PK","2022-08-13 08:00","42545.0","41234.0","-1311.0","0.01197907812380483","0.011778787099722913","-3.08137075165703","-0.5962927614035773","34.30542471242756","72.36232932451856","2022-08-13"
"PAK.7.4_1","Gujranwala","GADM2","3.6","PK","2022-08-13 08:00","326176.8333333333","317022.0","-9154.833333333314","0.09183917660536531","0.09055960236524124","-2.8067000261104953","-1.0643904773479151","32.33316289585532","74.07475121428519","2022-08-13"
"PAK.8.6_1","Sukkur","GADM2","3.6","PK","2022-08-13 08:00","64513.166666666664","55095.0","-9418.166666666664","0.018164490857069965","0.015738280915245522","-14.598602374155544","-3.9339161141636065","27.03982980235053","69.0210887094943","2022-08-13"
"PAK.7.5_1","Lahore","GADM2","3.6","PK","2022-08-13 08:00","698520.8688020787","711274.0","12753.13119792135","0.196677307756214","0.2031805067557917","1.825731128474499","0.47060805928637717","31.212249025737595","73.94344561103003","2022-08-13"
"PAK.2.3_1","Nasirabad","GADM2","3.6","PK","2022-08-13 08:00","4597.5","4303.0","-294.5","0.0012944837624678037","0.0012291827348815951","-6.404262259432423","-0.6820151896487198","28.78299391530157","67.8281987215831","2022-08-13"
"PAK.8.5_1","Rann of Kutch","GADM2","3.6","PK","2022-08-13 08:00","142.58333333333334","84.0","-58.58333333333334","4.014612502415103e-05","2.399520095980804e-05","-40.800928612884505","-2.751955901290408","27.43704665264957","68.8807568501547","2022-08-13"
"PAK.8.3_1","Larkana","GADM2","3.6","PK","2022-08-13 08:00","40832.916666666664","35733.0","-5099.916666666664","0.011497019597433595","0.010207387094009769","-12.489413416543023","-3.1847714516863492","27.895334562554417","68.34847452964398","2022-08-13"
"PAK.5.5_1","Kohat","GADM2","3.6","PK","2022-08-13 08:00","16974.35272203747","16016.0","-958.3527220374708","0.004779341811218852","0.004575084983003399","-5.6455541026451455","-1.0540783792705857","33.32403865221535","71.2456287788584","2022-08-13"
"PAK.8.1_1","Hyderabad","GADM2","3.6","PK","2022-08-13 08:00","112056.33333333333","108721.0","-3335.3333333333285","0.03155086546637949","0.031056931470848686","-2.9764525302523666","-0.5797980177941617","25.32310038372032","68.0513634220865","2022-08-13"
"PAK.5.6_1","Malakand","GADM2","3.6","PK","2022-08-13 08:00","60706.23990469109","59764.0","-942.2399046910868","0.017092602900945653","0.017072014168594853","-1.5521046685212192","-0.5521365870767596","35.69241137190094","72.24693033592979","2022-08-13"
"PAK.5.3_1","F.A.T.A.","GADM2","3.6","PK","2022-08-13 08:00","1729.169870895874","1393.0","-336.16987089587406","0.0004868694552307248","0.0003979204159168166","-19.429876600602622","-2.5360757696627427","32.93234229426058","70.79861448797378","2022-08-13"
"PAK.5.1_1","Bannu","GADM2","3.6","PK","2022-08-13 08:00","11439.552982038455","10321.0","-1118.5529820384545","0.003220949556310804","0.002948267489359271","-9.777088430905138","-1.3635885252935596","32.68247021464708","70.79360871430961","2022-08-13"
"PAK.7.8_1","Sargodha","GADM2","3.6","PK","2022-08-13 08:00","75684.91666666667","71313.0","-4371.9166666666715","0.021310037126422807","0.020371068643414175","-5.776393890981486","-1.3798488850061867","32.10038677977812","71.88915810191632","2022-08-13"
"PAK.2.1_1","Kalat","GADM2","3.6","PK","2022-08-13 08:00","8282.916666666666","7639.0","-643.9166666666661","0.0023321590279225548","0.0021821350015711143","-7.773094450089022","-1.001096811539002","27.493773199641932","65.73513763364258","2022-08-13"
"PAK.2.2_1","Makran","GADM2","3.6","PK","2022-08-13 08:00","6211.916666666667","6153.0","-58.91666666666697","0.0017490430144215606","0.0017576484703059388","-0.9482932063577273","-0.1434535875316926","26.114871247960583","63.45987406471992","2022-08-13"
"PAK.7.1_1","Bahawalpur","GADM2","3.6","PK","2022-08-13 08:00","102606.58333333333","90327.0","-12279.583333333328","0.028890169885220134","0.025802553774959294","-11.967520269375797","-3.1914203146677638","28.848917939976854","71.63772667830045","2022-08-13"
"PAK.3.1_1","F.A.T.A.","GADM2","3.6","PK","2022-08-13 08:00","19254.666666666668","19258.0","3.3333333333321207","0.00542139278993585","0.0055011854771902765","0.017310921460343034","0.003848548703250406","33.170013305044215","70.3861612705621","2022-08-13"
"PAK.7.7_1","Rawalpindi","GADM2","3.6","PK","2022-08-13 08:00","232028.10134892573","231526.0","-502.10134892573114","0.065330420800961","0.06613705830262519","-0.21639585121293486","-0.04374696524543634","33.19520491602086","72.72306554874687","2022-08-13"
"PAK.4.1_1","Islamabad","GADM2","3.6","PK","2022-08-13 08:00","204084.35307639558","215350.0","11265.646923604421","0.05746250815250467","0.06151626817493644","5.520066361346046","0.6949651222684646","33.6692247086546","73.06666567556829","2022-08-13"
"PAK.5.8_1","Peshawar","GADM2","3.6","PK","2022-08-13 08:00","121510.75","120716.0","-794.75","0.03421287500604343","0.03448338903647842","-0.6540519743975377","-0.1490624118367803","34.01355518230366","71.79201037504812","2022-08-13"
"PAK.5.4_1","Hazara","GADM2","3.6","PK","2022-08-13 08:00","52941.2745740943","51229.0","-1712.2745740942992","0.014906279565092911","0.014633930356785787","-3.2342293334940106","-1.4425773162570938","34.841214265020795","73.22436616623538","2022-08-13"
"PAK.8.4_1","Mirpur Khas","GADM2","3.6","PK","2022-08-13 08:00","33059.78365588226","31208.0","-1851.78365588226","0.009308396548828292","0.008914788470877254","-5.601148705840752","-1.3326485660289105","25.222414194595153","69.82002142729421","2022-08-13"
"PAK.7.2_1","Dera Ghazi Khan","GADM2","3.6","PK","2022-08-13 08:00","59597.246010565905","54174.0","-5423.246010565905","0.016780351766933477","0.015475190676150484","-9.099673855509844","-1.2376429293009896","30.022478285382874","70.54930191944253","2022-08-13"
"PAK.5.2_1","Dera Ismail Khan","GADM2","3.6","PK","2022-08-13 08:00","14325.833333333334","13796.0","-529.8333333333339","0.0040336179736422","0.003940926100494187","-3.6981887134863527","-0.4769138008099441","31.93734049108809","70.62908633221942","2022-08-13"
"PAK.2.6_1","Zhob","GADM2","3.6","PK","2022-08-13 08:00","6274.333333333333","6016.0","-258.33333333333303","0.0017666172094204435","0.0017185134401691091","-4.116647190056301","-0.46264006096032634","30.87994725044581","68.96663058059505","2022-08-13"
"PAK.2.5_1","Sibi","GADM2","3.6","PK","2022-08-13 08:00","4775.166666666667","4306.0","-469.16666666666697","0.0013445080398211","0.0012300397063444454","-9.82307987577207","-1.317441859694086","29.488334147075516","68.57004866839137","2022-08-13"
"PAK.7.3_1","Faisalabad","GADM2","3.6","PK","2022-08-13 08:00","229197.8270025521","227057.0","-2140.827002552105","0.06453352157644555","0.06486045648013254","-0.9340479750920659","-0.1620407730561552","31.209905085174274","72.62371843417888","2022-08-13"
"PAK.7.6_1","Multan","GADM2","3.6","PK","2022-08-13 08:00","187258.87292225286","186241.0","-1017.8729222528636","0.052725083279146975","0.053201074070900106","-0.5435616858906378","-0.20302801208241947","30.125238653918725","72.23541496058307","2022-08-13"
"PAK.8.2_1","Karachi","GADM2","3.6","PK","2022-08-13 08:00","757247.6645469783","744129.0","-13118.66454697831","0.21321257333827726","0.21256577255977377","-1.7324117111288022","-0.6348222786083518","25.078783448780808","67.18591128987336","2022-08-13"
"PAK.2.4_1","Quetta","GADM2","3.6","PK","2022-08-13 08:00","57032.13598595236","59302.0","2269.864014047642","0.016058112881494516","0.016940040563315908","3.9799039186740925","0.7159326546295731","29.377445454266713","64.30346882797684","2022-08-13"
