"polygon_id","polygon_name","polygon_level","polygon_version","country","date_time","n_baseline","n_crisis","n_difference","density_baseline","density_crisis","percent_change","clipped_z_score","lat","lon","ds"
"PAK.5.3_1","F.A.T.A.","GADM2","3.6","PK","2022-08-31 16:00","1538.7692307692307","1412.0","-126.76923076923072","0.000539511185118847","0.0005012887238438762","-8.233001948343905","-1.0895559979512486","32.93234229426058","70.79861448797378","2022-08-31"
"PAK.8.3_1","Larkana","GADM2","3.6","PK","2022-08-31 16:00","33124.153846153844","26985.0","-6139.153846153844","0.0116137307272929","0.009580223946832153","-18.53320855403864","-2.368806630424426","27.895334562554417","68.34847452964398","2022-08-31"
"PAK.8.4_1","Mirpur Khas","GADM2","3.6","PK","2022-08-31 16:00","29693.29179572058","28120.0","-1573.291795720579","0.010410828814649886","0.009983172035757649","-5.2982970819574","-1.0560552504150946","25.222414194595153","69.82002142729421","2022-08-31"
"PAK.2.4_1","Quetta","GADM2","3.6","PK","2022-08-31 16:00","44309.20514002364","26850.0","-17459.205140023638","0.015535345585782215","0.009532296200572292","-39.40222141795826","-4.0","29.377445454266713","64.30346882797684","2022-08-31"
"PAK.8.5_1","Rann of Kutch","GADM2","3.6","PK","2022-08-31 16:00","170.07692307692307","131.0","-39.076923076923066","5.9631035307826973e-05","4.650766488919815e-05","-22.84172661870503","-1.6465397932202022","27.43704665264957","68.8807568501547","2022-08-31"
"PAK.7.6_1","Multan","GADM2","3.6","PK","2022-08-31 16:00","168175.0742991294","168821.0","645.9257008706045","0.058964224022868175","0.05993488926915512","0.38407704756011674","0.09612619422931723","30.125238653918725","72.23541496058307","2022-08-31"
"PAK.7.1_1","Bahawalpur","GADM2","3.6","PK","2022-08-31 16:00","99492.09249723617","97042.0","-2450.092497236168","0.03488313624928974","0.034451884092958525","-2.4625754770907635","-0.4761659114398672","28.848917939976854","71.63772667830045","2022-08-31"
"PAK.5.2_1","Dera Ismail Khan","GADM2","3.6","PK","2022-08-31 16:00","16412.49386292168","14689.0","-1723.4938629216813","0.005754419725636315","0.0052148938134155085","-10.500469170766126","-1.2977016041894516","31.93734049108809","70.62908633221942","2022-08-31"
"PAK.7.4_1","Gujranwala","GADM2","3.6","PK","2022-08-31 16:00","256560.5690539519","258053.0","1492.4309460480872","0.08995325218185483","0.09161406448589504","0.5817047937270162","0.12614695984039684","32.33316289585532","74.07475121428519","2022-08-31"
"PAK.2.6_1","Zhob","GADM2","3.6","PK","2022-08-31 16:00","6595.927914711034","5124.0","-1471.9279147110337","0.002312612453555042","0.0018191242358187125","-22.312323762529832","-3.7443840682574465","30.87994725044581","68.96663058059505","2022-08-31"
"PAK.2.1_1","Kalat","GADM2","3.6","PK","2022-08-31 16:00","7411.533093313055","5841.0","-1570.5330933130554","0.0025985735370611606","0.0020736738215099727","-21.187535671575674","-2.270859942968548","27.493773199641932","65.73513763364258","2022-08-31"
"PAK.5.8_1","Peshawar","GADM2","3.6","PK","2022-08-31 16:00","108446.84798937126","109098.0","651.1520106287353","0.03802278230628569","0.03873200934413542","0.6004287062409512","0.10873238381456483","34.01355518230366","71.79201037504812","2022-08-31"
"PAK.5.5_1","Kohat","GADM2","3.6","PK","2022-08-31 16:00","18112.050007023958","16735.0","-1377.0500070239577","0.006350304755792698","0.0059412654345093975","-7.602529703666469","-1.2636085366830128","33.32403865221535","71.2456287788584","2022-08-31"
"PAK.5.1_1","Bannu","GADM2","3.6","PK","2022-08-31 16:00","16064.076923076924","14572.0","-1492.0769230769238","0.005632260513993411","0.005173356433323629","-9.287704815988818","-1.6320114818267935","32.68247021464708","70.79360871430961","2022-08-31"
"PAK.5.7_1","Mardan","GADM2","3.6","PK","2022-08-31 16:00","40976.19728363031","39655.0","-1321.1972836303103","0.014366752542292338","0.014078331688405745","-3.2242255967030378","-0.5185753512885891","34.30542471242756","72.36232932451856","2022-08-31"
"PAK.5.4_1","Hazara","GADM2","3.6","PK","2022-08-31 16:00","46805.045016619944","43461.0","-3344.0450166199444","0.016410417365724305","0.01542953911259115","-7.144472504422318","-1.5082465776453284","34.841214265020795","73.22436616623538","2022-08-31"
"PAK.7.7_1","Rawalpindi","GADM2","3.6","PK","2022-08-31 16:00","184693.20118343196","184222.0","-471.20118343195645","0.06475567996901976","0.06540255756654856","-0.2551250555852458","-0.04894246219209258","33.19520491602086","72.72306554874687","2022-08-31"
"PAK.8.2_1","Karachi","GADM2","3.6","PK","2022-08-31 16:00","501351.5637873049","511116.0","9764.436212695087","0.1757799486313232","0.18145657746188856","1.9476186855279705","0.5917046903650495","25.078783448780808","67.18591128987336","2022-08-31"
"PAK.7.8_1","Sargodha","GADM2","3.6","PK","2022-08-31 16:00","72578.19970931628","69828.0","-2750.199709316279","0.025446798490629505","0.024790360487655944","-3.789239507091538","-0.8119773833072159","32.10038677977812","71.88915810191632","2022-08-31"
"PAK.7.5_1","Lahore","GADM2","3.6","PK","2022-08-31 16:00","541628.4978704379","556710.0","15081.502129562083","0.1899015310009434","0.1976433749653855","2.784468384543136","0.7524806929571473","31.212249025737595","73.94344561103003","2022-08-31"
"PAK.2.2_1","Makran","GADM2","3.6","PK","2022-08-31 16:00","4855.163083416536","5008.0","152.8369165834638","0.0017022791570701513","0.0017779418760694987","3.1472772631008086","0.2804294801610286","26.114871247960583","63.45987406471992","2022-08-31"
"PAK.8.1_1","Hyderabad","GADM2","3.6","PK","2022-08-31 16:00","82701.07692307692","84194.0","1492.923076923078","0.028996002213450518","0.029890582730390452","1.8051820854652534","0.34815741607817674","25.32310038372032","68.0513634220865","2022-08-31"
"PAK.8.6_1","Sukkur","GADM2","3.6","PK","2022-08-31 16:00","55557.7351091952","44842.0","-10715.7351091952","0.01947921683896478","0.01591982220581239","-19.28721935107861","-3.0471108027878366","27.03982980235053","69.0210887094943","2022-08-31"
"PAK.3.1_1","F.A.T.A.","GADM2","3.6","PK","2022-08-31 16:00","21418.43542053661","20557.0","-861.4354205366108","0.007509563647401899","0.007298153184177454","-4.021746622278757","-0.7465117236488611","33.170013305044215","70.3861612705621","2022-08-31"
"PAK.2.5_1","Sibi","GADM2","3.6","PK","2022-08-31 16:00","4377.538461538462","3999.0","-378.5384615384619","0.0015348181625046667","0.0014197263503198734","-8.645315437184877","-1.1840233523560382","29.488334147075516","68.57004866839137","2022-08-31"
"PAK.7.3_1","Faisalabad","GADM2","3.6","PK","2022-08-31 16:00","190996.78847005544","189676.0","-1320.7884700554423","0.06696579424704327","0.06733883851544693","-0.6915202948868253","-0.17483984435492853","31.209905085174274","72.62371843417888","2022-08-31"
"PAK.5.6_1","Malakand","GADM2","3.6","PK","2022-08-31 16:00","57780.85421613688","50597.0","-7183.854216136882","0.020258669404081955","0.01796296427785312","-12.432716660952408","-3.770567275388146","35.69241137190094","72.24693033592979","2022-08-31"
"PAK.2.3_1","Nasirabad","GADM2","3.6","PK","2022-08-31 16:00","4921.923076923077","2435.0","-2486.923076923077","0.0017256860217871141","0.0008644745343908206","-50.517203662614456","-4.0","28.78299391530157","67.8281987215831","2022-08-31"
"PAK.4.1_1","Islamabad","GADM2","3.6","PK","2022-08-31 16:00","169875.73281745333","173761.0","3885.2671825466678","0.0595604955588182","0.061688689761923356","2.287109669528263","0.3876672157289296","33.6692247086546","73.06666567556829","2022-08-31"
"PAK.7.2_1","Dera Ghazi Khan","GADM2","3.6","PK","2022-08-31 16:00","65530.341125435654","63206.0","-2324.3411254356542","0.02297573365445608","0.02243941577852411","-3.5469152401238944","-0.5164915113803733","30.022478285382874","70.54930191944253","2022-08-31"
